name,lat,lon
Delhi,28.6139,77.209
Mumbai,19.076,72.8777
Bangalore,12.9716,77.5946
Chennai,13.0827,80.2707
Kolkata,22.5726,88.3639
Hyderabad,17.385,78.4867
Pune,18.5204,73.8567
Ahmedabad,23.0225,72.5714
Jaipur,26.9124,75.7873
Lucknow,26.8467,80.9462
